place,lat,lon,area,sort,gps,start,end,io,move,time,price,remark,comment,rating
興達港(情人碼頭),22.8623219,120.2063707,茄萣區,藍色水岸,"(22.8623219,120.2063707)",null,null,戶外,動態,120,0,,3743 ,3.8 
白雲寺,22.90966,120.18306,茄萣區,宗教巡禮,"(22.90966,120.18306)",08:00,17:30,室內,靜態,60,0,11:30-14:00休息,23 ,4.3 
郭常喜兵器館,22.87537,120.19788,茄萣區,歷史文化,"(22.87537,120.19788)",09:00,18:00,室內,靜態,60,"全票：NT$50
優待票：NT$30(持學生證)","12:00-13:00休息
(周一公休)",197 ,4.1 
茄萣漁村風情自行車路線,22.87773,120.21172,茄萣區,戶外踏青,"(22.87773,120.21172)",null,null,室外,動態,180,0,,1092 ,4.2 
二仁溪紅樹林步道,22.9190563,120.1869785,茄萣區,戶外踏青,"(22.9190563,120.1869785)",null,null,室外,動態,120,0,,37 ,4.2 
茄萣膠筏協會-漁家說家常,22.9151,120.18218,茄萣區,親子同遊,"(22.9151,120.18218)",09:00,18:00,室內,靜態,120,0,,171 ,4.4 
多納部落,22.91104,120.71591,茂林區,歷史文化,"(22.91104,120.71591)",null,null,室外,靜態,150,0,,2226 ,4.1 
多納高吊橋,22.9114273,120.6887226,茂林區,風景區,"(22.9114273,120.6887226)",null,null,室外,動態,180,0,,1185 ,4.4 
紫蝶幽谷,22.8876578,120.6631516,茂林區,風景區,"(22.8876578,120.6631516)",null,null,室外,動態,150,0,,511 ,4.4 
龍頭山、蛇頭山與龜形山,22.91176,120.68753,茂林區,風景區,"(22.91176,120.68753)",null,null,室外,動態,180,0,,317 ,4.1 
得樂日嘎橋,22.88345,120.65452,茂林區,風景區,"(22.88345,120.65452)",null,null,室外,靜態,30,0,,35 ,4.3 
情人谷,22.8758654,120.6668437,茂林區,風景區,"(22.8758654,120.6668437)",null,null,室外,動態,120,0,,1365 ,3.9 
茂林谷,22.89138,120.67359,茂林區,風景區,"(22.89138,120.67359)",null,null,室外,動態,180,0,,360 ,4.5 
小長城步道,22.9126623,120.6920887,茂林區,戶外踏青,"(22.9126623,120.6920887)",05:00,18:00,室外,動態,120,0,,950 ,4.3 
多納里石板屋,22.910884,120.715982,茂林區,歷史文化,"(22.910884,120.715982)",null,null,室內,靜態,60,0,,28 ,4.2 
錫安山,23.20369,120.66703,那瑪夏區,戶外踏青,"(23.20369,120.66703)",06:30,17:00,室外,動態,120,0,,850 ,3.9 
嗡嗡大峽谷,23.2092,120.67798,那瑪夏區,戶外踏青,"(23.2092,120.67798)",null,null,室外,動態,120,,,39 ,4.4 
那瑪夏民權國小,23.24874,120.70286,那瑪夏區,建築之美,"(23.24874,120.70286)",null,null,室外,靜態,60,0,假日開放,129 ,4.6 
那瑪夏螢火蟲季,23.26618,120.6377684,那瑪夏區,戶外踏青,"(23.26618,120.6377684)",null,null,室外,動態,150,0,,733 ,4.5 
千年牛樟木,23.2743,120.735,那瑪夏區,戶外踏青,"(23.2743,120.735)",null,null,室外,靜態,30,0,,3 ,4.3 
寶山二集團櫻花公園,23.059358,120.7309894,桃源區,戶外踏青,"(23.059358,120.7309894)",null,null,室外,靜態,90,0,,4536 ,4.2 
藤枝國家森林遊樂區,23.0677024,120.754703,桃源區,風景區,"(23.0677024,120.754703)",08:00,17:00,室外,動態,180,0,,1908 ,4.5 
梅山遊客中心,23.26336,120.826,桃源區,建築之美,"(23.26336,120.826)",null,null,室內,靜態,60,0,,2267 ,4.3 
寶山假日市集,23.05543,120.72151,桃源區,夜市商圈,"(23.05543,120.72151)",10:00,17:00,室外,靜態,120,0,假日開放,23 ,4.3 
寶山茶園步道風光,23.0384623,120.7118907,桃源區,戶外踏青,"(23.0384623,120.7118907)",null,null,室外,動態,120,0,,10 ,4.2 
馬舒霍爾文化聚落所,23.2734299,120.8256429,桃源區,歷史文化,"(23.2734299,120.8256429)",null,null,室內,靜態,60,0,,352 ,4.1 
瓦阿係吊橋,23.2167738,120.8036197,桃源區,戶外踏青,"(23.2167738,120.8036197)",null,null,室外,動態,120,0,,637 ,4.3 
索阿紀吊橋,23.1308185,120.7255353,桃源區,戶外踏青,"(23.1308185,120.7255353)",null,null,室外,動態,120,0,,92 ,4.3 
藤枝櫻花原生茶園,23.0604026,120.7362337,桃源區,戶外踏青,"(23.0604026,120.7362337)",null,null,室外,靜態,90,0,,98 ,4.0 
桃源區原住民文化館,23.1592132,120.7662842,桃源區,歷史文化,"(23.1592132,120.7662842)",09:00,17:00,室內,靜態,90,0,周一休息,319 ,4.0 
拉阿魯哇文化祭場,23.1304925,120.7300328,桃源區,歷史文化,"(23.1304925,120.7300328)",null,null,室外,靜態,120,0,,45 ,4.4 
小林村紀念公園,23.15425,120.64019,甲仙區,歷史文化,"(23.15425,120.64019)",null,null,室外,靜態,60,0,,521 ,4.3 
甲仙形象商圈,23.081446,120.587179,甲仙區,夜市商圈,"(23.081446,120.587179)",08:00,18:00,室外,靜態,120,0,,49 ,4.0 
甲仙化石館,23.09219,120.58827,甲仙區,歷史文化,"(23.09219,120.58827)",08:00,17:00,室內,靜態,90,"全票：NT$50
半票：NT$30(持學生證、高雄市民)
團體票：NT$10(各級學校戶外教學，20人以上)","12:00-13:00休息
周一、二公休",355 ,3.5 
甲仙大橋,23.08059,120.58484,甲仙區,戶外踏青,"(23.08059,120.58484)",null,null,室外,靜態,90,0,,1196 ,4.4 
陳家友善香草園,23.08703,120.58968,甲仙區,親子同遊,"(23.08703,120.58968)",null,null,室外,靜態,90,0,,102 ,4.3 
六義山登山步道,23.08858,120.57225,甲仙區,戶外踏青,"(23.08858,120.57225)",null,null,室外,動態,120,0,,163 ,4.3 
甲仙貓巷彩繪村,23.08303,120.58916,甲仙區,歷史文化,"(23.08303,120.58916)",null,null,室外,靜態,90,0,,2037 ,3.9 
甲仙天壇元宋太祖宮,23.05139,120.56483,甲仙區,歷史文化,"(23.05139,120.56483)",08:00,17:00,室內,靜態,60,0,,107 ,4.5 
頂崁Q版神明彩繪村,23.0691,120.57698,甲仙區,歷史文化,"(23.0691,120.57698)",null,null,室外,動態,90,0,,119 ,4.1 
永齡杉林有機農業園區,22.97752,120.55051,杉林區,親子同遊,"(22.97752,120.55051)",09:00,17:00,室外,靜態,90,0,,400 ,3.9 
黃家伙房,22.9603941,120.5321496,杉林區,建築之美,"(22.9603941,120.5321496)",null,null,室內,靜態,60,0,,62 ,4.3 
金興吊橋,23.0010944,120.5914957,杉林區,戶外踏青,"(23.0010944,120.5914957)",null,null,室外,動態,60,0,,58 ,3.9 
內門紫竹寺,22.91718,120.45503,內門區,宗教巡禮,"(22.91718,120.45503)",05:00,21:00,室內,靜態,60,0,,6057 ,4.6 
鴨母王朱一貴文化園區,22.93946,120.45337,內門區,歷史文化,"(22.93946,120.45337)",06:00,21:00,室內,靜態,60,0,,243 ,4.0 
內門308高地,22.97741,120.44242,內門區,風景區,"(22.97741,120.44242)",null,null,室外,動態,180,0,,1362 ,4.0 
牛埔泥岩水土保持教學園區,22.9099558,120.3853561,內門區,戶外踏青,"(22.9099558,120.3853561)",null,null,室外,動態,120,0,,1420 ,4.0 
順賢宮,22.91245,120.47039,內門區,宗教巡禮,"(22.91245,120.47039)",05:00,21:00,室內,靜態,60,0,,748 ,4.4 
南海紫竹寺,22.94175,120.46137,內門區,宗教巡禮,"(22.94175,120.46137)",05:00,21:30,室內,靜態,60,0,,1051 ,4.6 
木柵吊橋＆木柵教會,22.98098,120.47147,內門區,建築之美,"(22.98098,120.47147)",null,null,室內,靜態,60,0,,350 ,4.5 
寶來花賞溫泉公園,23.10685,120.70274,六龜區,悠閒泡湯,"(23.10685,120.70274)",10:00,21:00,室外,靜態,120,0,週二11:00-17:00,55 ,4.0 
茂林國家風景區,22.8911814,120.6231399,六龜區,風景區,"(22.8911814,120.6231399)",08:30,17:30,室外,動態,120,0,,2117 ,4.2 
新威森林公園,22.89351,120.62307,六龜區,戶外踏青,"(22.89351,120.62307)",08:30,17:30,室外,動態,90,0,,855 ,4.5 
十八羅漢山風景區,22.9443611,120.6345833,六龜區,風景區,"(22.9443611,120.6345833)",09:00,17:00,室外,動態,180,0,週日08:00-17:00,3683 ,3.9 
諦願寺,23.01094,120.63856,六龜區,宗教巡禮,"(23.01094,120.63856)",09:00,17:00,室內,靜態,60,0,,1613 ,4.5 
六龜大佛,23.05517,120.67863,六龜區,宗教巡禮,"(23.05517,120.67863)",08:00,17:00,室外,靜態,60,0,,4629 ,4.0 
寶來妙通寺,23.10078,120.68564,六龜區,宗教巡禮,"(23.10078,120.68564)",08:00,17:00,室內,靜態,60,0,,330 ,4.3 
神威天臺山,22.87287,120.59219,六龜區,宗教巡禮,"(22.87287,120.59219)",06:00,17:00,室內,靜態,60,0,,3001 ,4.4 
妙崇寺,23.01074,120.66919,六龜區,宗教巡禮,"(23.01074,120.66919)",08:00,16:30,室內,靜態,60,0,,775 ,4.5 
新威景觀大橋,22.8914852,120.6381211,六龜區,戶外踏青,"(22.8914852,120.6381211)",null,null,室外,動態,60,0,,128 ,4.3 
蓮池潭風景區,22.67873,120.2969,左營,戶外踏青,"(22.67873,120.2969)",null,null,戶外,動態,180,0,,17330 ,4.3 
新崛江商圈,22.62326,120.3019,新興區,夜市商圈,"(22.62326,120.3019)",13,24,戶外,靜態,120,0,,13474 ,4.0 
光之穹頂-美麗島捷運站,22.63151,120.30132,新興區,建築,"(22.63151,120.30132)",6,24,室內,靜態,30,0,,3136 ,4.4 
六合夜市,22.63212,120.29926,新興區,夜市商圈,"(22.63212,120.29926)",17,2,戶外,靜態,120,0,,34185 ,3.7 
中央公園,22.6242,120.30185,新興區,戶外踏青,"(22.6242,120.30185)",null,null,戶外,動態,90,0,,13536 ,4.4 
南華夜市,22.63012,120.30282,新興區,夜市商圈,"(22.63012,120.30282)",12,22,戶外,靜態,120,0,,3042 ,3.9 
逍遙園,22.63167,120.31007,新興區,歷史文化,"(22.63167,120.31007)",11,18,室內,靜態,90,0,週一休息,3276 ,4.5 
柯旗化故居,22.6360301,120.2998458,新興區,歷史文化,"(22.6360301,120.2998458)",13,17,室內,靜態,30,0,週一休息,78 ,4.4 
愛河,22.6498513,120.3060681,前金區,戶外踏青,"(22.6498513,120.3060681)",null,null,戶外,動態,180,0,,4912 ,4.2 
城市光廊,22.6230385,120.2975844,前金區,藝文館所,"(22.6230385,120.2975844)",null,null,戶外,靜態,60,0,,2917 ,4.1 
摩登高雄-中央公園站,22.6248366,120.3001765,前金區,建築,"(22.6248366,120.3001765)",6,24,室內,靜態,30,0,,572 ,4.5 
白色戀人貨櫃屋,22.6253863,120.2896406,前金區,建築,"(22.6253863,120.2896406)",11,23,戶外,靜態,120,200,含晚餐,575 ,3.7 
高雄文學館,22.6254997,120.2979812,前金區,藝文館所,"(22.6254997,120.2979812)",9,23,室內,靜態,180,0,週一休息,186 ,4.6 
真愛碼頭,22.6184858,120.2849568,前金區,戶外踏青,"(22.6184858,120.2849568)",14,20,戶外,靜態,30,0,,420 ,4.6 
立德棒球場,22.6293875,120.2863364,前金區,體育賽事,"(22.6293875,120.2863364)",不定,不定,戶外,靜態,180,0,依棒球賽事時間,479 ,4.0 
勞工博物館,22.6271349,120.2873095,前金區,藝文館所,"(22.6271349,120.2873095)",9,17,室內,靜態,120,0,週一休息,364 ,4.1 
城市光廊J Cafe,22.6233243,120.2991604,前金區,藝文館所,"(22.6233243,120.2991604)",11,20,戶外,靜態,120,200,含晚餐,588 ,3.9 
光榮碼頭,22.6170578,120.2902617,苓雅區,戶外踏青,"(22.6170578,120.2902617)",null,null,戶外,靜態,30,0,,9271 ,3.6 
高雄港旅運中心,22.6110431,120.2935234,苓雅區,建築,"(22.6110431,120.2935234)",10,21,室內,靜態,60,0,,636 ,4.2 
玫瑰聖母聖殿主教座堂,22.6203294,120.2890439,苓雅區,宗教信仰,"(22.6203294,120.2890439)",9,17,室內,靜態,60,0,週六日休息,2235 ,4.4 
高雄關帝廟,22.6203677,120.2735941,苓雅區,宗教信仰,"(22.6203677,120.2735941)",7,22,室內,靜態,60,0,,4672 ,4.7 
新光碼頭,22.6089243,120.2939976,苓雅區,戶外踏青,"(22.6089243,120.2939976)",9,17,戶外,靜態,30,0,週一二休息,1292 ,4.3 
衛武迷迷村,22.6271532,120.3439306,苓雅區,藝文館所,"(22.6271532,120.3439306)",null,null,戶外,靜態,60,0,,2446 ,4.3 
高雄市文化中心,22.6257827,120.3154947,苓雅區,戶外踏青,"(22.6257827,120.3154947)",null,null,戶外,靜態,120,0,館內另有展覽或表演,9262 ,4.5 
自來水公園,22.627487,120.3122861,苓雅區,戶外踏青,"(22.627487,120.3122861)",null,null,戶外,靜態,30,0,,1077 ,4.0 
高雄清真寺,22.6280077,120.3393777,苓雅區,宗教信仰,"(22.6280077,120.3393777)",9,20,室內,靜態,60,0,,776 ,4.6 
陳中和紀念館,22.6136001,120.2930574,苓雅區,建築,"(22.6136001,120.2930574)",10,16,室內,靜態,60,0,僅每月的第二個周六開放,184 ,4.0 
苓雅自強夜市,22.6170165,120.2984957,苓雅區,夜市商圈,"(22.6170165,120.2984957)",17,1,戶外,靜態,120,0,,8223 ,4.1 
駁二藝術特區,22.6199803,120.2815287,鹽埕區,藝文館所,"(22.6199803,120.2815287)",10,18,室內,靜態,150,0,,69268 ,4.4 
大港橋,22.618124,120.2811681,鹽埕區,建築,"(22.618124,120.2811681)",null,null,戶外,靜態,30,0,,3099 ,4.6 
高雄流行音樂中心,22.6181374,120.2886549,鹽埕區,藝文館所,"(22.6181374,120.2886549)",10,22,室內,靜態,120,0,週一休息,4465 ,4.7 
高雄市立歷史博物館,22.6269501,120.2867994,鹽埕區,藝文館所,"(22.6269501,120.2867994)",9,17,室內,靜態,150,0,週一休息,3541 ,4.4 
高雄市音樂館,22.6276657,120.284355,鹽埕區,藝文館所,"(22.6276657,120.284355)",null,null,戶外,靜態,60,0,視演奏場次,1215 ,4.2 
高雄市立電影館,22.622489,120.2863512,鹽埕區,藝文館所,"(22.622489,120.2863512)",14,21,戶外,靜態,60,0,另有電影場次,1659 ,4.3 
西子灣風景區,22.6179389,120.2660636,鼓山區,風景區,"(22.6179389,120.2660636)",null,null,戶外,靜態,120,0,,7611 ,4.4 
哈瑪星鐵道文化園區,22.621711,120.2766416,鼓山區,藝文館所,"(22.621711,120.2766416)",null,null,戶外,靜態,60,0,,6611 ,4.4 
壽山動物園,22.6355162,120.2728486,鼓山區,戶外踏青,"(22.6355162,120.2728486)",9,17,戶外,動態,180,80,,19051 ,4.2 
壽山Love情人觀景台,22.6254302,120.2715732,鼓山區,風景區,"(22.6254302,120.2715732)",null,null,戶外,靜態,30,0,,7539 ,4.5 
棧貳庫,22.6187797,120.2770125,鼓山區,夜市商圈,"(22.6187797,120.2770125)",10,21,室內,靜態,60,0,,12912 ,4.4 
打狗英國領事館文化園區,22.6188665,120.2668686,鼓山區,歷史文化,"(22.6188665,120.2668686)",10,19,室內,靜態,120,100,,8265 ,4.2 
高雄市立美術館,22.6567017,120.2839762,鼓山區,藝文館所,"(22.6567017,120.2839762)",10,17,室內,靜態,180,90,,9201 ,4.5 
柴山登山步道（壽山國家自然公園）,22.6402215,120.2688251,鼓山區,戶外踏青,"(22.6402215,120.2688251)",null,null,戶外,動態,180,0,,1436 ,4.6 
內惟埤文化園區,22.6582175,120.2824598,鼓山區,戶外踏青,"(22.6582175,120.2824598)",null,null,戶外,動態,120,0,,4982 ,4.3 
忠烈祠,22.6582964,120.2438348,鼓山區,藝文館所,"(22.6582964,120.2438348)",8,17,室內,靜態,90,0,,2612 ,4.4 
十八王公廟,22.6176504,120.2257711,鼓山區,宗教信仰,"(22.6176504,120.2257711)",5,22,室內,靜態,60,0,,109 ,4.3 
西子灣蔣介石行館,22.6272022,120.2621043,鼓山區,歷史文化,"(22.6272022,120.2621043)",10,17,室內,靜態,60,0,週一休息,149 ,3.5 
高雄哈瑪星代天宮,22.6225387,120.2686043,鼓山區,宗教信仰,"(22.6225387,120.2686043)",5,22,室內,靜態,60,0,,323 ,4.3 
永添藝術・金馬賓館當代美術館,22.6277122,120.2788661,鼓山區,藝文館所,"(22.6277122,120.2788661)",10,18,室內,靜態,90,120,,1389 ,4.5 
鼓山魚市場,22.6187782,120.270186,鼓山區,夜市商圈,"(22.6187782,120.270186)",12,20,室內,靜態,60,0,,1703 ,3.9 
HOLO Park映像鹽埕,22.6163612,120.2835939,鼓山區,藝文館所,"(22.6163612,120.2835939)",14,20,室內,戶外,60,0,週一二休息,248 ,4.0 
武德殿,22.6246459,120.2698407,鼓山區,歷史文化,"(22.6246459,120.2698407)",10,18,室內,靜態,60,0,週一休息,1423 ,4.4 
舊打狗驛故事館,22.6216918,120.2729673,鼓山區,歷史文化,"(22.6216918,120.2729673)",10,18,室內,戶外,60,0,,2940 ,4.2 
哨船頭山碉堡,22.6193093,120.2657575,鼓山區,風景區,"(22.6193093,120.2657575)",null,null,戶外,動態,30,0,,7 ,2.4 
雄鎮北門,22.6175631,120.2643062,鼓山區,歷史文化,"(22.6175631,120.2643062)",null,null,戶外,靜態,30,0,,545 ,4.4 
舊三和銀行,22.6221919,120.271943,鼓山區,歷史文化,"(22.6221919,120.271943)",11,20,室內,靜態,60,200,,1106 ,4.5 
大港倉410,22.6170761,120.2807491,鼓山區,夜市商圈,"(22.6170761,120.2807491)",10,21,室內,靜態,60,0,,140 ,4.1 
哈瑪星貿易商大樓,22.6220824,120.2747731,鼓山區,歷史文化,"(22.6220824,120.2747731)",11,20,室內,靜態,60,0,,268 ,4.6 
高港水花園,22.6180717,120.2795649,鼓山區,戶外踏青,"(22.6180717,120.2795649)",null,null,戶外,動態,30,0,,31 ,4.6 
旗津彩虹教堂,22.6029382,120.269152,旗津區,戶外踏青,"(22.6029382,120.269152)",null,null,戶外,靜態,30,0,,7455 ,4.0 
旗津星空隧道,22.6128722,120.2615391,旗津區,歷史文化,"(22.6128722,120.2615391)",null,null,戶外,靜態,60,0,,4039 ,4.2 
高雄燈塔(旗津旗后燈塔),22.615464,120.262384,旗津區,歷史文化,"(22.615464,120.262384)",10,21,戶外,動態,90,0,,3758 ,4.5 
旗津貝殼館,22.6011492,120.2716736,旗津區,藝文館所,"(22.6011492,120.2716736)",9,17,室內,靜態,90,30,,3044 ,4.1 
旗津海水浴場,22.6101941,120.2566213,旗津區,戶外踏青,"(22.6101941,120.2566213)",9,18,戶外,動態,90,0,,7049 ,4.3 
旗後砲台,22.6130319,120.261531,旗津區,歷史文化,"(22.6130319,120.261531)",null,null,戶外,動態,90,0,,2793 ,4.5 
旗津風車公園,22.5883175,120.2817629,旗津區,戶外踏青,"(22.5883175,120.2817629)",null,null,戶外,動態,60,0,,9736 ,4.2 
旗后觀光市場,22.6102374,120.2635251,旗津區,建築之美,"(22.6102374,120.2635251)",8,20,室內,靜態,90,0,,9371 ,4.0 
旗津天后宮,22.6133702,120.2657904,旗津區,宗教信仰,"(22.6133702,120.2657904)",6,21,室內,靜態,60,0,,599 ,4.6 
勞動女性紀念公園,22.5944609,120.2785547,旗津區,戶外踏青,"(22.5944609,120.2785547)",null,null,戶外,動態,60,0,,48 ,4.1 
旗後教會,22.6118297,120.2650597,旗津區,建築之美,"(22.6118297,120.2650597)",null,null,戶外,靜態,30,0,,115 ,4.5 
戰爭與和平紀念公園主題館,22.5911762,120.2802925,旗津區,歷史文化,"(22.5911762,120.2802925)",10,18,戶外,靜態,60,0,,399 ,4.1 
旗津沙灘吧Cijin Sunset Bar,22.6100953,120.2649925,旗津區,夜市商圈,"(22.6100953,120.2649925)",12,23,室內,靜態,60,0,,1332 ,4.4 
旗津黃金海韻－海珍珠,22.5994101,120.2731413,旗津區,建築之美,"(22.5994101,120.2731413)",null,null,戶外,靜態,30,0,,1522 ,4.1 
旗津老街（廟前路）,22.613355,120.2660596,旗津區,夜市商圈,"(22.613355,120.2660596)",12,20,戶外,靜態,90,0,,23853 ,4.2 
高雄市立圖書館總館,22.6104487,120.299224,前鎮區,藝文館所,"(22.6104487,120.299224)",10,22,室內,靜態,90,0,,4099 ,4.6 
高雄展覽館,22.6078789,120.295757,前鎮區,藝文館所,"(22.6078789,120.295757)",10,18,室內,靜態,60,0,,11908 ,4.3 
統一夢時代購物中心,22.5948705,120.3031792,前鎮區,夜市商圈,"(22.5948705,120.3031792)",11,22,室內,靜態,180,0,,62050 ,4.4 
SKM Park,22.5823347,120.3262606,前鎮區,夜市商圈,"(22.5823347,120.3262606)",11,22,室內,靜態,180,0,,36438 ,4.3 
前鎮之星,22.5966003,120.313637,前鎮區,建築之美,"(22.5966003,120.313637)",null,null,戶外,靜態,30,0,,1013 ,4.2 
前鎮漁港,22.5698482,120.3102016,前鎮區,夜市商圈,"(22.5698482,120.3102016)",2,7,室內,靜態,60,0,,120 ,4.1 
勞工公園,22.6072565,120.2712057,前鎮區,戶外踏青,"(22.6072565,120.2712057)",null,null,戶外,靜態,60,0,,8747 ,4.2 
MLD台鋁,22.6038987,120.3007523,前鎮區,夜市商圈,"(22.6038987,120.3007523)",11,21,室內,靜態,120,0,,5155 ,4.2 
高雄市漁業文化館,22.5722715,120.3141883,前鎮區,歷史文化,"(22.5722715,120.3141883)",8,17,室內,靜態,60,0,,132 ,3.6 
創藝所在-R7獅甲站,22.6076821,120.3071528,前鎮區,建築之美,"(22.6076821,120.3071528)",9,18,室內,靜態,60,0,,112 ,4.2 
i-Ride KAOHSIUNG 5D 飛行劇院,22.6047497,120.2964548,前鎮區,藝文館所,"(22.6047497,120.2964548)",9,17,室內,靜態,90,400,,1228 ,4.6 
珍芳烏魚子見學工廠,22.5825049,120.3102029,前鎮區,藝文館所,"(22.5825049,120.3102029)",9,17,室內,靜態,90,50,,126 ,4.6 
鳳山溪前鎮河自行車路線,22.6139947,120.3552956,前鎮區,戶外踏青,"(22.6139947,120.3552956)",null,null,戶外,動態,120,0,,31 ,4.1 
宏裕行花枝丸館,22.5774301,120.312985,前鎮區,藝文館所,"(22.5774301,120.312985)",9,18,室內,靜態,90,0,,2164 ,4.4 
台塑王氏昆仲公園,22.6033911,120.3072295,前鎮區,戶外踏青,"(22.6033911,120.3072295)",9,17,戶外,動態,60,0,,916 ,4.5 
愛河之心,22.6535164,120.2990983,三民區,戶外踏青,"(22.6535164,120.2990983)",null,null,戶外,動態,30,0,,4923 ,4.2 
金獅湖風景區,22.6652225,120.3256599,三民區,風景區,"(22.6652225,120.3256599)",null,null,戶外,動態,120,0,,592 ,4.1 
中都愛河濕地公園,22.6464628,120.2807312,三民區,戶外踏青,"(22.6464628,120.2807312)",null,null,戶外,動態,60,0,,2660 ,4.2 
金獅湖蝴蝶園,22.665027,120.326413,三民區,戶外踏青,"(22.665027,120.326413)",9,17,室內,靜態,90,0,,2068 ,4.1 
國立科學工藝博物館,22.6404194,120.3199048,三民區,藝文館所,"(22.6404194,120.3199048)",9,17,室內,動態,180,100,,22640 ,4.5 
中都唐榮磚窯廠,22.6420566,120.2824285,三民區,歷史文化,"(22.6420566,120.2824285)",10,17,室內,靜態,60,0,,719 ,3.9 
高雄車站,22.6404561,120.2997016,三民區,建築之美,"(22.6404561,120.2997016)",null,null,室內,靜態,60,0,,3384 ,4.0 
新客家文化園區,22.650322,120.2932207,三民區,藝文館所,"(22.650322,120.2932207)",9,17,室內,靜態,60,0,,1142 ,4.0 
彪琥台灣鞋故事館,22.6534947,120.3112324,三民區,藝文館所,"(22.6534947,120.3112324)",9,18,室內,靜態,60,0,,228 ,4.4 
檨仔林埤濕地公園,22.6727107,120.3244972,三民區,戶外踏青,"(22.6727107,120.3244972)",null,null,室內,靜態,60,0,,627 ,4.1 
三鳳宮,22.6360092,120.2915238,三民區,宗教信仰,"(22.6360092,120.2915238)",6,22,室內,靜態,60,0,,2457,4.6
三塊厝舊站,22.639139,120.2913712,三民區,建築之美,"(22.639139,120.2913712)",10:00,18:00,室內,靜態,30,0,,511 ,4.3 
吉林夜市,22.6441326,120.3037605,三民區,夜市商圈,"(22.6441326,120.3037605)",10:00,23:59,室外,靜態,120,0,,991 ,4.4 
黃蝶翠谷,22.9314312,120.5867665,美濃區,戶外踏青,"(22.9314312,120.5867665)",null,null,室外,動態,90,0,,129 ,3.9 
美濃民俗村,22.9279099,120.5732922,美濃區,歷史文化,"(22.9279099,120.5732922)",08:30,17:00,室內,靜態,90,0,假日：08:00–18:00,9771 ,4.0 
美濃湖,22.9076804,120.5508008,美濃區,戶外踏青,"(22.9076804,120.5508008)",null,null,室外,動態,90,0,,1111 ,4.4 
美濃原鄉緣紙傘文化村,22.8827485,120.5443526,美濃區,歷史文化,"(22.8827485,120.5443526)",09:00,17:30,室內,靜態,60,0,假日：08:30–18:00,5152 ,3.8 
竹仔門電廠,22.8693949,120.5838196,美濃區,歷史文化,"(22.8693949,120.5838196)",08:00,16:30,室內,靜態,60,0,,98 ,4.3 
美濃客家文物館,22.9110749,120.5549731,美濃區,歷史文化,"(22.9110749,120.5549731)",09:00,17:00,室內,靜態,60,40,,4037 ,4.0 
永安老街,22.8994545,120.5392691,美濃區,歷史文化,"(22.8994545,120.5392691)",null,null,室外,靜態,60,0,,759 ,4.0 
美濃文創中心,22.8999795,120.5398639,美濃區,歷史文化,"(22.8999795,120.5398639)",12:00,17:00,室內,靜態,90,0,假日：09:00–18:00,1092 ,4.5 
鍾理和紀念館,22.9331771,120.5836375,美濃區,歷史文化,"(22.9331771,120.5836375)",09:00,17:00,室內,靜態,30,0,周一公休,465 ,4.2 
美濃窯,22.9051676,120.5202689,美濃區,歷史文化,"(22.9051676,120.5202689)",08:00,17:00,室內,靜態,90,0,假日：09:00–17:00,417 ,4.0 
美濃東門樓,22.8956705,120.5462869,美濃區,歷史文化,"(22.8956705,120.5462869)",null,null,室外,靜態,30,0,,1054 ,4.2 
旗山老街,22.8846224,120.4794043,旗山區,夜市商圈,"(22.8846224,120.4794043)",14:00,20:00,室外,靜態,120,0,,29887 ,4.2 
旗山武德殿,22.887975,120.477664,旗山區,建築之美,"(22.887975,120.477664)",09:00,18:00,室內,靜態,60,0,周一休息,1343 ,4.3 
旗山車站-糖鐵故事館,22.8846222,120.4794092,旗山區,建築之美,"(22.8846222,120.4794092)",10:00,18:00,室內,靜態,60,0,"假日：10:00–19:00
周二公休",3911 ,4.1 
旗山糖廠,22.8816192,120.4891108,旗山區,歷史文化,"(22.8816192,120.4891108)",null,null,室內,靜態,90,0,,1691 ,3.9 
旗山孔廟,22.88878,120.4736726,旗山區,歷史文化,"(22.88878,120.4736726)",09:00,17:00,室內,靜態,90,0,周一公休,551 ,4.4 
旗山天后宮,22.88656,120.4797173,旗山區,宗教信仰,"(22.88656,120.4797173)",05:00,22:00,室內,靜態,60,0,週二09:00–17:00,998 ,4.6 
鼓山公園,22.8897988,120.4728081,旗山區,戶外踏青,"(22.8897988,120.4728081)",null,null,室外,動態,60,0,,57 ,4.4 
地景橋,22.8843016,120.483104,旗山區,戶外踏青,"(22.8843016,120.483104)",null,null,室外,動態,60,0,,329 ,4.1 
舊鐵橋濕地教育園區,22.6624247,120.4245524,大樹區,戶外踏青,"(22.6624247,120.4245524)",null,null,室外,動態,60,0,,6224 ,4.3 
佛光山,22.6624036,120.3447254,大樹區,宗教信仰,"(22.6624036,120.3447254)",08:30,17:30,室外,動態,90,0,,34149 ,4.6 
義大世界,22.7301048,120.4029245,大樹區,親子同遊,"(22.7301048,120.4029245)",09:00,20:00,室內,靜態,240,0,,26884 ,4.2 
東照山關帝廟,22.6940792,120.3910547,大樹區,宗教信仰,"(22.6940792,120.3910547)",05:00,21:00,室內,靜態,60,0,,658 ,4.6 
佛光緣美術館,22.7521281,120.4420256,大樹區,歷史文化,"(22.7521281,120.4420256)",09:00,17:00,室內,靜態,120,0,,225 ,4.6 
高屏溪斜張橋,22.7637922,120.4518496,大樹區,戶外踏青,"(22.7637922,120.4518496)",null,null,室外,動態,60,0,,404 ,4.4 
澄清湖風景區,22.6603607,120.3512311,鳥松區,戶外踏青,"(22.6603607,120.3512311)",06:00,18:00,室外,動態,90,0,"4月至9月：06:00–18:00
10月至3月：06:00–17:30",1365 ,4.4 
鳥松濕地,22.6526961,120.3473397,鳥松區,戶外踏青,"(22.6526961,120.3473397)",null,null,室外,動態,90,0,,2305 ,4.2 
澄清湖棒球場,22.654096,120.354722,鳥松區,親子同遊,"(22.654096,120.354722)",null,null,室內,靜態,60,0,,2523 ,4.2 
林園海洋濕地公園,22.4914345,120.3838535,林園區,戶外踏青,"(22.4914345,120.3838535)",null,null,室外,動態,90,0,,4571 ,4.2 
清水巖風景區,22.5234344,120.3879794,林園區,宗教信仰,"(22.5234344,120.3879794)",null,null,室外,靜態,90,0,,1525 ,4.1 
林園安樂樓,22.505613,120.392565,林園區,歷史文化,"(22.505613,120.392565)",null,null,室內,靜態,30,0,,474 ,3.9 
市境之南樹,22.4758654,120.4098258,林園區,戶外踏青,"(22.4758654,120.4098258)",null,null,室外,靜態,30,0,,524 ,4.0 
大寮包公廟,22.5891522,120.4083226,大寮區,歷史文化,"(22.5891522,120.4083226)",null,null,室內,靜態,60,0,,516 ,4.6 
舊振南漢餅文化館,22.6223025,120.3868266,大寮區,歷史文化,"(22.6223025,120.3868266)",10:00,18:00,室內,靜態,60,0,,834 ,4.5 
肉肉栽培研究所,22.5542478,120.4071025,大寮區,親子同遊,"(22.5542478,120.4071025)",14:00,20:30,室內,靜態,60,0,假日11-21:30,716 ,4.4 
開漳聖王廟,22.6281269,120.3494444,鳳山區,宗教信仰,"(22.6281269,120.3494444)",05:30,21:30,室內,靜態,60,0,,832 ,4.8 
鳳儀書院,22.6277386,120.3569121,鳳山區,歷史文化,"(22.6277386,120.3569121)",10:30,17:30,室內,靜態,60,"全票：NT$66
優待票：NT$39
優惠票：NT$25",假日：10:30–18:30,7446 ,4.3 
衛武營國家藝術文化中心,22.6237461,120.3389223,鳳山區,建築之美,"(22.6237461,120.3389223)",11:00,21:00,室內,靜態,90,0,,17704 ,4.6 
大東文化藝術中心,22.6249694,120.3609137,鳳山區,建築之美,"(22.6249694,120.3609137)",null,null,室內,靜態,90,0,,9886 ,4.5 
大東濕地公園,22.6282662,120.3621153,鳳山區,戶外踏青,"(22.6282662,120.3621153)",null,null,室外,動態,60,0,,4409 ,4.2 
鳳山基督長老教會,22.6284845,120.3580967,鳳山區,宗教信仰,"(22.6284845,120.3580967)",null,null,室內,靜態,30,0,,634 ,4.4 
鳳山天公廟,22.625207,120.3571731,鳳山區,宗教信仰,"(22.625207,120.3571731)",05:00,21:00,室內,靜態,30,0,,1775 ,4.7 
鳳山青年夜市,22.6099025,120.3500303,鳳山區,夜市商圈,"(22.6099025,120.3500303)",17:00,23:00,室外,靜態,90,0,周一二三休息,3929 ,4.2 
東便門,22.6214622,120.3605183,鳳山區,歷史文化,"(22.6214622,120.3605183)",null,null,室外,靜態,30,0,,651 ,4.2 
五甲自強夜市,22.5952554,120.3250148,鳳山區,夜市商圈,"(22.5952554,120.3250148)",18:30,23:00,室外,靜態,120,0,,485 ,4.4 
FLOMO富樂夢橡皮擦觀光工廠,22.903397,120.2287411,湖內區,親子同遊,"(22.903397,120.2287411)",09:30,16:30,室內,靜態,60,"全票：NT$100
優待票：NT$50",,1813 ,4.1 
永安濕地,22.8358564,120.2089495,永安區,戶外踏青,"(22.8358564,120.2089495)",null,null,室外,動態,90,0,,297 ,4.2 
鑽石沙灣海岸景色,22.8213312,120.2075603,永安區,戶外踏青,"(22.8213312,120.2075603)",null,null,室外,動態,60,0,,450 ,4.2 
永安宮,22.8191838,120.2160706,永安區,宗教信仰,"(22.8191838,120.2160706)",04:30,21:00,室內,靜態,30,0,,53 ,4.6 
天文宮,22.812819,120.2398438,永安區,宗教信仰,"(22.812819,120.2398438)",06:00,21:00,室內,靜態,30,0,,72 ,4.3 
烏林投步道,22.8405027,120.1982748,永安區,戶外踏青,"(22.8405027,120.1982748)",null,null,室外,動態,30,0,,217 ,4.4 
文興宮,22.8046021,120.2464167,永安區,宗教信仰,"(22.8046021,120.2464167)",05:20,21:30,室內,靜態,30,0,,106 ,4.7 
維新彩繪村,22.8060114,120.2428696,永安區,親子同遊,"(22.8060114,120.2428696)",null,null,室外,靜態,30,0,,83 ,3.9 
永新灣,22.8151236,120.2074383,永安區,戶外踏青,"(22.8151236,120.2074383)",null,null,室外,靜態,30,0,,160 ,4.0 
漯底山自然公園,22.7709617,120.2505353,彌陀區,戶外踏青,"(22.7709617,120.2505353)",null,null,室外,動態,120,0,,3552 ,4.2 
南寮海岸光廊,22.76092,120.2317398,彌陀區,戶外踏青,"(22.76092,120.2317398)",null,null,室外,動態,90,0,,6514 ,4.4 
蚵仔寮漁港,22.7270042,120.2524263,梓官區,親子同遊,"(22.7270042,120.2524263)",13:00,18:30,室內,靜態,60,0,,15355 ,4.2 
同安張家古厝,22.7522986,120.2646558,梓官區,歷史文化,"(22.7522986,120.2646558)",null,null,室內,靜態,30,0,,20 ,4.3 
台灣糖業博物館-橋頭糖廠,22.755686,120.3116983,橋頭區,歷史文化,"(22.755686,120.3116983)",09:00,16:30,室內,靜態,90,0,,6368 ,4.2 
R23糖倉會展中心,22.7588269,120.3075826,橋頭區,歷史文化,"(22.7588269,120.3075826)",09:30,17:30,室內,靜態,90,350,,2949 ,4.2 
臺糖花卉農園中心,22.7411683,120.3222904,橋頭區,親子同遊,"(22.7411683,120.3222904)",08:00,17:00,室內,靜態,90,0,,1777 ,4.0 
阿公店水庫,22.7598793,120.2539095,燕巢區,親子同遊,"(22.7598793,120.2539095)",06:00,18:00,室外,靜態,60,0,,4010 ,4.2 
新養女湖,22.7637913,120.1389916,燕巢區,戶外踏青,"(22.7637913,120.1389916)",null,null,室外,動態,90,0,,815 ,4.0 
燕巢雞冠山,22.8070493,120.3855912,燕巢區,戶外踏青,"(22.8070493,120.3855912)",null,null,室外,動態,90,0,,172 ,3.7 
裕賀牛觀光工廠,22.7702395,120.3804302,燕巢區,親子同遊,"(22.7702395,120.3804302)",10:00,19:00,室內,靜態,90,100,周一二休息,2904 ,4.5 
烏山頂泥火山自然保留區,22.7960272,120.4033933,燕巢區,戶外踏青,"(22.7960272,120.4033933)",08:00,17:30,室外,動態,90,0,,1189 ,4.1 
田寮月世界,22.8850437,120.3848183,田寮區,戶外踏青,"(22.8850437,120.3848183)",null,null,室外,動態,120,0,,12543 ,4.1 
田寮慈玄聖天宮,22.8355286,120.3834037,田寮區,歷史文化,"(22.8355286,120.3834037)",null,null,室內,靜態,60,0,,246 ,4.3 
大崗山自然生態園區,22.861377,120.3315852,阿蓮區,戶外踏青,"(22.861377,120.3315852)",null,null,室外,動態,120,0,,1476 ,4.5 
大崗山超峰寺,22.854646,120.3400878,阿蓮區,宗教信仰,"(22.854646,120.3400878)",null,null,室內,靜態,30,0,,7699 ,4.5 
竹滬明寧靖王廟-華山殿,22.8632765,120.2264219,路竹區,宗教信仰,"(22.8632765,120.2264219)",null,null,室內,靜態,30,0,,53 ,4.4 
禾光牧場,22.8899278,120.273112,路竹區,親子同遊,"(22.8899278,120.273112)",09:30,18:30,室內,靜態,90,0,周一至週五休息,1291 ,4.5 
崗山之眼,22.8119481,120.3317815,岡山區,親子同遊,"(22.8119481,120.3317815)",09:00,17:00,室外,靜態,90,80,,17993 ,4.0 
航空教育展示館,22.7941523,120.2664983,岡山區,親子同遊,"(22.7941523,120.2664983)",08:00,17:00,室內,靜態,90,200,,4794 ,3.9 
空軍軍史館,22.7846698,120.2700138,岡山區,親子同遊,"(22.7846698,120.2700138)",08:00,17:00,室內,靜態,90,0,,527 ,4.0 
岡山河堤公園,22.7846694,120.2622889,岡山區,親子同遊,"(22.7846694,120.2622889)",null,null,室外,動態,60,0,,3154 ,4.3 
岡山壽天宮,22.7981634,120.2885442,岡山區,宗教信仰,"(22.7981634,120.2885442)",05:30,21:00,室內,靜態,30,0,,1264 ,4.6 
岡山和平公園,22.7116788,120.2128608,岡山區,歷史文化,"(22.7116788,120.2128608)",null,null,室外,靜態,30,0,,1223 ,4.0 
台灣螺絲博物館,22.8016169,120.2843427,岡山區,親子同遊,"(22.8016169,120.2843427)",09:00,16:00,室內,靜態,60,0,,285 ,3.5 
高雄市皮影戲館,22.7826913,120.2958622,岡山區,歷史文化,"(22.7826913,120.2958622)",09:00,17:00,室內,靜態,60,0,周一休息,509 ,4.2 
觀音山風景區,22.729647,120.3693681,大社區,戶外踏青,"(22.729647,120.3693681)",null,null,室外,動態,90,0,,2393 ,4.2 
九番埤濕地公園,22.6871429,120.3238621,仁武區,戶外踏青,"(22.6871429,120.3238621)",null,null,室外,動態,90,0,,350 ,3.7 
仁武運動公園,22.7051115,120.3413941,仁武區,戶外踏青,"(22.7051115,120.3413941)",null,null,室外,動態,30,0,,1319 ,4.1 
洲仔濕地公園,22.680554,120.2956441,左營區,戶外踏青,"(22.680554,120.2956441)",09:00,17:00,室外,動態,90,0,,720 ,4.1 
鳳山縣舊城,22.6769843,120.2843885,左營區,歷史文化,"(22.6769843,120.2843885)",null,null,室外,靜態,30,0,,667 ,4.3 
原生植物園,22.6805508,120.2986297,左營區,戶外踏青,"(22.6805508,120.2986297)",null,null,室外,動態,60,0,,2879 ,4.2 
高雄巨蛋,22.6805504,120.2909048,左營區,親子同遊,"(22.6805504,120.2909048)",null,null,室內,靜態,120,0,,14715 ,4.4 
半屏山自然公園,22.691447,120.3009763,左營區,戶外踏青,"(22.691447,120.3009763)",null,null,室外,動態,90,0,,627 ,4.4 
孔廟,22.6914467,120.291964,左營區,歷史文化,"(22.6914467,120.291964)",09:00,17:00,室內,靜態,90,0,周一休息,1858 ,4.3 
城邑左營慈濟宮,22.6808639,120.288743,左營區,歷史文化,"(22.6808639,120.288743)",07:00,21:00,室內,靜態,30,0,,236 ,4.5 
啟明堂,22.6823413,120.2895846,左營區,宗教信仰,"(22.6823413,120.2895846)",04:00,21:30,室內,靜態,30,0,,988 ,4.6 
紅毛港文化園區,22.5506874,120.3153697,小港區,歷史文化,"(22.5506874,120.3153697)",15:00,20:00,室內,靜態,90,0,,9787 ,4.5 
大坪頂熱帶植物園,22.555995,120.3875901,小港區,親子同遊,"(22.555995,120.3875901)",null,null,室內,靜態,90,0,,200 ,4.4 
小港森林公園,22.5700798,120.3652236,小港區,戶外踏青,"(22.5700798,120.3652236)",null,null,室外,動態,60,0,,1899 ,4.3 
漢民夜市,22.5658537,120.3555713,小港區,夜市商圈,"(22.5658537,120.3555713)",18:00,23:59,室外,動態,120,0,,2173 ,3.8 
高雄都會公園,22.6507348,120.243484,楠梓區,親子同遊,"(22.6507348,120.243484)",null,null,室外,動態,30,0,,4507 ,4.3 
援中港生態濕地公園,22.7218637,120.2517304,楠梓區,戶外踏青,"(22.7218637,120.2517304)",09:00,17:00,室外,動態,90,0,,943 ,4.0 
右昌森林公園,22.7197769,120.2911607,楠梓區,戶外踏青,"(22.7197769,120.2911607)",null,null,室外,動態,30,0,,2032 ,4.3 
